City,Lat,Lng,Max_Temp,Humidity,Cloudiness,Wind_Speed,Country,Date
bluff,-46.6,168.3333,13.86,61,0,10.13,NZ,1612405408
rikitea,-23.1203,-134.9692,25.53,72,1,6.21,PF,1612405648
hobart,-42.8794,147.3294,22.78,64,20,3.09,AU,1612405649
punta arenas,-53.15,-70.9167,15,77,0,6.17,CL,1612405653
jamestown,42.097,-79.2353,-5.56,93,1,4.63,US,1612405415
lorengau,-2.0226,147.2712,28.54,70,100,1.52,PG,1612405656
qaanaaq,77.484,-69.3632,-30.01,64,0,2.2,GL,1612405657
busselton,-33.65,115.3333,19.44,52,0,0.89,AU,1612405411
srednekolymsk,67.45,153.6833,-27.66,87,32,1.83,RU,1612405660
hermanus,-34.4187,19.2345,16.11,92,70,1.98,ZA,1612405662
sexsmith,55.35,-118.786,-23,84,40,2.57,CA,1612405664
carnarvon,-24.8667,113.6333,28,100,90,12.86,AU,1612405462
laguna,38.421,-121.4238,12,66,90,1.54,US,1612405669
cherskiy,68.75,161.3,-14.61,79,44,3.98,RU,1612405670
airai,-8.9266,125.4092,16.93,100,100,1.47,TL,1612405407
mitsamiouli,-11.3847,43.2844,27.83,70,93,1.79,KM,1612405484
ayan,56.45,138.1667,-29.54,71,95,6.54,RU,1612405677
roma,43.2128,-75.4557,-2.78,74,90,3.85,US,1612405254
alotenango,14.4803,-90.8075,17.22,72,0,7.2,GT,1612405680
halifax,44.6453,-63.5724,4.44,100,100,2.06,CA,1612405682
kapaa,22.0752,-159.319,24,50,20,4.63,US,1612405685
bonavista,48.6499,-53.1147,7.78,100,100,2.06,CA,1612405686
tuktoyaktuk,69.4541,-133.0374,-41,74,1,3.09,CA,1612405511
provideniya,64.3833,-173.3,-21.76,82,69,6.48,RU,1612405690
gizo,-8.103,156.8419,28.33,80,100,7.22,SB,1612405691
bengkulu,-3.8004,102.2655,28.04,68,63,1.54,ID,1612405693
albany,42.6001,-73.9662,-2.22,63,66,4.47,US,1612405590
bredasdorp,-34.5322,20.0403,17,82,94,1.03,ZA,1612405696
hilo,19.7297,-155.09,26,57,75,4.63,US,1612405668
bolshoye selo,57.7177,38.9334,-5.83,98,100,2.77,RU,1612405699
hasaki,35.7333,140.8333,10,43,20,7.72,JP,1612405701
fairbanks,64.8378,-147.7164,-21,77,90,1.54,US,1612405702
khasan,42.4308,130.6434,-11.14,77,0,9.83,RU,1612405704
porto novo,6.4965,2.6036,28,89,40,5.14,BJ,1612405706
bilibino,68.0546,166.4372,-21.41,77,94,4.22,RU,1612405707
hofn,64.2539,-15.2082,-0.15,91,39,6.38,IS,1612405709
vaini,-21.2,-175.2,29,84,75,3.6,TO,1612405420
banda aceh,5.5577,95.3222,27.07,74,1,6.57,ID,1612405677
mahebourg,-20.4081,57.7,25,88,40,1.03,MU,1612405424
tadine,-21.55,167.8833,27.53,78,23,8.54,NC,1612405715
hamilton,39.1834,-84.5333,-2.78,86,1,0.6,US,1612405532
puerto ayora,-0.7393,-90.3518,24.44,95,19,3.7,EC,1612405718
ponta do sol,32.6667,-17.1,11.67,66,48,1.34,PT,1612405720
flinders,-34.5833,150.8552,28.89,64,2,2.24,AU,1612405722
port elizabeth,-33.918,25.5701,20,88,0,4.12,ZA,1612405723
ushuaia,-54.8,-68.3,11,62,75,3.09,AR,1612405584
fortuna,40.5982,-124.1573,8.33,87,1,3.01,US,1612405726
vanavara,60.34,102.2797,-26.47,88,99,1.43,RU,1612405730
port alfred,-33.5906,26.891,20.56,91,31,0.89,ZA,1612405731
barrow,71.2906,-156.7887,-32,68,40,7.2,US,1612405733
san vicente,-26.6167,-54.1333,21.42,98,100,1.03,AR,1612405734
manhattan,40.7834,-73.9662,0.56,59,90,5.18,US,1612405608
plauen,50.5,12.1333,6.67,89,100,1.34,DE,1612405739
gubbi,13.3106,76.9444,17.73,63,99,2.21,IN,1612405741
yellowknife,62.456,-114.3525,-27.78,76,90,4.12,CA,1612405624
belle fourche,44.6714,-103.8522,-1.11,86,90,6.17,US,1612405744
los llanos de aridane,28.6585,-17.9182,17,88,90,1.03,ES,1612405746
sibiti,-3.6819,13.3499,20.79,99,95,0.21,CG,1612405747
porbandar,21.6422,69.6093,17,94,40,4.12,IN,1612405749
dikson,73.5069,80.5464,-24.66,91,86,5.11,RU,1612405750
east london,-33.0153,27.9116,22.67,84,46,7.43,ZA,1612405752
sinfra,6.6167,-5.9167,24,88,43,2.06,CI,1612405754
santa rosalia,27.3167,-112.2833,20.62,37,100,1.51,MX,1612405755
tuatapere,-46.1333,167.6833,18.73,44,0,4.18,NZ,1612405757
hithadhoo,-0.6,73.0833,28.17,73,90,3.98,MV,1612405760
butaritari,3.0707,172.7902,27.6,82,45,7.11,KI,1612405731
pacific grove,36.6177,-121.9166,11.67,76,1,2.57,US,1612405681
saskylakh,71.9167,114.0833,-38.67,78,0,2.98,RU,1612405765
inzer,54.2167,57.5556,-2.38,97,100,1.51,RU,1612405766
bure,10.7,37.0667,15.06,35,26,2.08,ET,1612405768
asbe teferi,9.0833,40.8667,12.09,40,3,0.9,ET,1612405769
nambutalai,9.7167,79,22.82,76,88,5.77,IN,1612405771
kaitangata,-46.2817,169.8464,13.33,63,0,6.71,NZ,1612405773
new norfolk,-42.7826,147.0587,22.78,64,20,3.09,AU,1612405774
clyde river,70.4692,-68.5914,-28,76,90,3.09,CA,1612405776
faanui,-16.4833,-151.75,26.76,76,98,7.66,PF,1612405777
san patricio,28.017,-97.5169,19,77,75,7.72,US,1612405779
saint-philippe,-21.3585,55.7679,24.44,73,0,2.06,RE,1612405781
arraial do cabo,-22.9661,-42.0278,24.8,86,0,9.99,BR,1612405782
tartus,34.889,35.8866,17,42,0,1.54,SY,1612405785
victor harbor,-35.5667,138.6167,19,72,90,4.12,AU,1612405787
hayrabolu,41.2131,27.1069,6,100,90,1.54,TR,1612405789
madimba,-10.4,40.3333,24.81,82,100,1.69,TZ,1612405790
montgomery village,39.1768,-77.1953,1.67,60,1,6.69,US,1612405792
mujiayingzi,42.1167,118.7833,-6.64,87,0,5.63,CN,1612405793
langxiang,46.95,128.8833,-23.2,83,11,2.45,CN,1612405795
chuy,-33.6971,-53.4616,19.88,93,100,8.3,UY,1612405614
longyearbyen,78.2186,15.6401,-5,68,75,7.2,SJ,1612405775
gobabis,-22.45,18.9667,19.7,61,44,1.97,NA,1612405800
mataura,-46.1927,168.8643,18.72,34,0,3.91,NZ,1612405802
dhidhdhoo,6.8833,73.1,27.67,68,40,3.25,MV,1612405803
ancud,-41.8697,-73.8203,15,82,0,2.06,CL,1612405775
mishkino,55.3389,63.9175,-14.6,93,68,1.61,RU,1612405807
capao da canoa,-29.7456,-50.0097,25.08,92,100,0.91,BR,1612405510
saint-joseph,-21.3667,55.6167,24.44,73,0,2.06,RE,1612405810
hammerfest,70.6634,23.6821,-3,68,40,10.29,NO,1612405812
lebu,-37.6167,-73.65,14.45,89,3,5.98,CL,1612405813
boca do acre,-8.7522,-67.3978,23.87,90,85,0.44,BR,1612405815
esperance,-33.8667,121.9,18,39,90,8.75,AU,1612405817
amazar,53.858,120.875,-26.61,78,25,1.19,RU,1612405818
miles city,46.4083,-105.8406,-7,73,90,6.69,US,1612405820
kaoma,-14.7833,24.8,17.95,96,100,1.58,ZM,1612405822
chifeng,42.2683,118.9636,-4.02,87,0,6.48,CN,1612405824
tashara,55.5195,83.5094,-14.26,95,35,3.51,RU,1612405825
norman wells,65.282,-126.8329,-38,67,75,2.06,CA,1612405827
phalaborwa,-23.943,31.1411,23,100,81,1.03,ZA,1612405829
atuona,-9.8,-139.0333,25.65,71,0,4.32,PF,1612405777
la ferte-bernard,48.1863,0.6536,7.22,100,75,1.03,FR,1612405833
port hedland,-20.3167,118.5667,31,62,40,5.14,AU,1612405776
tankhoy,51.5528,105.1306,-1.19,89,100,1.58,RU,1612405837
hualmay,-11.0964,-77.6139,21.17,79,97,3.27,PE,1612405838
nikolskoye,59.7035,30.7861,-10,85,90,7,RU,1612405840
bend,44.0582,-121.3153,1,60,1,3.09,US,1612405841
vardo,70.3705,31.1107,-1.62,93,100,9.81,NO,1612405843
qaqortoq,60.7167,-46.0333,-10,44,33,1.54,GL,1612405845
malkara,40.89,26.9011,8.46,97,0,3.06,TR,1612405847
thompson,55.7435,-97.8558,-19,78,90,5.66,CA,1612405848
cape town,-33.9258,18.4232,20.56,82,20,5.14,ZA,1612405775
avarua,-21.2078,-159.775,29,70,20,4.12,CK,1612405851
kupang,-10.1667,123.5833,25,100,75,5.14,ID,1612405775
mirabad,30.4362,61.8383,3.9,75,0,0.39,AF,1612405855
mahajanga,-15.7167,46.3167,24,94,20,2.06,MG,1612405858
cidreira,-30.1811,-50.2056,24.5,91,100,4.98,BR,1612405861
pangnirtung,66.1451,-65.7125,-24.09,77,85,0.46,CA,1612405863
lata,40.1629,-8.3327,11.67,91,100,0.45,PT,1612405866
visnes,59.3556,5.2242,-4.44,85,0,2.57,NO,1612405868
dunedin,-45.8742,170.5036,12.22,68,0,11.62,NZ,1612405869
lagoa,39.05,-27.9833,12.11,66,99,14.66,PT,1612405871
mount gambier,-37.8333,140.7667,26,31,94,6.69,AU,1612405848
sosnovo-ozerskoye,52.5249,111.5418,-15.14,93,100,4.66,RU,1612405874
san andres,12.5847,-81.7006,26,65,75,5.14,CO,1612405704
lubao,14.9167,120.55,28,57,40,5.14,PH,1612405877
hervey bay,-25.2986,152.8535,30.56,54,12,5.14,AU,1612405879
bethel,41.3712,-73.414,-1,64,90,3.6,US,1612405881
kodiak,57.79,-152.4072,-1,80,1,3.09,US,1612405882
khatanga,71.9667,102.5,-29.61,86,27,5.66,RU,1612405884
tornio,65.8481,24.1466,-13,85,0,4.63,FI,1612405885
dumbravita,45.7667,25.4333,1.11,88,93,0.45,RO,1612405887
bambous virieux,-20.3428,57.7575,25,88,40,1.03,MU,1612405889
rio gallegos,-51.6226,-69.2181,17,55,0,4.12,AR,1612405884
portland,45.5234,-122.6762,6.11,75,90,0.55,US,1612405825
haines junction,60.7522,-137.5108,-28,76,99,0.27,CA,1612405893
puerto gaitan,4.3133,-72.0816,29.8,48,92,2.35,CO,1612405895
georgetown,5.4112,100.3354,28,57,20,3.09,MY,1612405731
vao,-22.6667,167.4833,25.94,87,19,8.47,NC,1612405731
riyadh,24.6877,46.7219,16,39,0,2.06,SA,1612405835
coahuayana,18.7333,-103.6833,21.11,88,18,0.79,MX,1612405903
banikoara,11.2985,2.4386,21.5,20,52,2.79,BJ,1612405905
barranca,-10.75,-77.7667,20.84,78,99,1.85,PE,1612405907
izhma,65.0083,53.9113,-20.37,92,83,0.8,RU,1612405908
erdemli,36.605,34.3084,14.65,60,100,5.24,TR,1612405910
ola,59.5833,151.2833,-15.97,86,55,7.95,RU,1612405912
hauterive,46.0901,3.4459,7,76,0,4.63,FR,1612405913
khilok,51.3674,110.4676,-9.23,89,100,2.35,RU,1612405915
victoria,22.2855,114.1577,22.78,43,0,4.63,HK,1612405916
alugan,12.2188,125.4808,28.4,75,41,5.89,PH,1612405918
geraldton,-28.7667,114.6,24,50,90,12.35,AU,1612405920
severo-kurilsk,50.6789,156.125,-11.59,92,100,14.12,RU,1612405921
kapoeta,4.7717,33.5903,26.86,33,75,7.84,SS,1612405924
daru,-9.0763,143.2092,32.03,62,4,3.04,PG,1612405925
pevek,69.7008,170.3133,-21.97,75,0,4.62,RU,1612405927
yaan,7.3833,8.5667,22.62,20,1,2.02,NG,1612405929
guozhen,34.3659,107.359,7.15,44,100,0.64,CN,1612405932
tromso,69.6496,18.957,-2,86,75,5.66,NO,1612405801
san cristobal,7.7669,-72.225,19.53,71,78,0.64,VE,1612405936
ribeira grande,38.5167,-28.7,12.85,64,98,13.5,PT,1612405938
codrington,-38.2667,141.9667,27.81,30,100,5.88,AU,1612405939
coquimbo,-29.9533,-71.3436,15,88,20,3.09,CL,1612405941
salalah,17.0151,54.0924,18,48,0,1.03,OM,1612405938
manzanillo,20.3433,-77.1167,17.46,66,0,4.6,CU,1612405944
soyo,-6.1349,12.3689,26.23,85,95,3.37,AO,1612405946
neon soulion,41.1,23.65,9.44,94,0,0.74,GR,1612405947
santa rosa de viterbo,-21.4728,-47.3631,25,83,40,1.54,BR,1612405949
port lincoln,-34.7333,135.8667,14.53,88,100,7.74,AU,1612405951
nemuro,43.3236,145.575,-9,57,20,2.06,JP,1612405945
moindou,-21.6924,165.677,28.32,74,30,7.22,NC,1612405954
richards bay,-28.783,32.0377,23.31,90,100,1.44,ZA,1612405955
erzin,36.9559,36.2,12.78,71,100,5.36,TR,1612405957
sao filipe,14.8961,-24.4956,22.1,78,90,5.25,CV,1612405928
meulaboh,4.1363,96.1285,26.06,82,76,2.31,ID,1612405774
pemberton,50.3164,-122.8027,1.11,100,90,1.16,CA,1612405797
lazaro cardenas,17.9583,-102.2,23.57,86,11,2.64,MX,1612405801
caravelas,-17.7125,-39.2481,24.15,87,57,2.51,BR,1612405965
baton rouge,30.4508,-91.1545,11,46,1,3.6,US,1612405709
kharp,66.8014,65.8081,-21.86,89,19,0.69,RU,1612405970
port macquarie,-31.4333,152.9167,29.44,52,0,1.79,AU,1612405971
taoudenni,22.6783,-3.9836,19.07,24,0,2.88,ML,1612405973
seoul,37.5683,126.9778,-3,33,0,1.54,KR,1612405809
cookeville,36.1628,-85.5016,1.11,80,1,1.29,US,1612405976
touros,-5.1989,-35.4608,26,78,20,3.09,BR,1612405978
ulladulla,-35.35,150.4667,28,57,20,7.2,AU,1612405979
mersing,2.4312,103.8405,27,78,40,6.17,MY,1612405981
atambua,-9.1061,124.8925,22.97,95,100,1.17,ID,1612405983
kijang,35.2442,129.2139,6,31,0,5.14,KR,1612405984
kirando,-7.4167,30.6,21.67,75,46,2.32,TZ,1612405986
chimbote,-9.0853,-78.5783,20.7,80,92,1.95,PE,1612405941
alexandria,31.2156,29.9553,17,88,20,4.63,EG,1612405989
port-gentil,-0.7193,8.7815,27.28,80,100,3.45,GA,1612405939
clones,54.1833,-7.2333,6.67,88,100,2.68,IE,1612405992
galle,6.0367,80.217,25.99,82,58,2.07,LK,1612405994
carcassonne,43.25,2.1667,12,94,90,3.6,FR,1612405995
chokurdakh,70.6333,147.9167,-18.23,91,89,6.26,RU,1612405997
cayenne,4.9333,-52.3333,27,83,75,6.17,GF,1612405968
tupelo,34.2576,-88.7034,3,70,1,1.85,US,1612406000
beringovskiy,63.05,179.3167,-17.08,92,100,8.12,RU,1612406002
iqaluit,63.7506,-68.5145,-20,77,90,1.03,CA,1612405939
smithers,54.7804,-127.1743,-5,86,90,1.54,CA,1612406005
saint george,37.1041,-113.5841,13,35,1,5.14,US,1612405848
barabash,43.2,131.4833,-16,47,0,4.8,RU,1612406008
karachi,24.9056,67.0822,12,87,0,2.06,PK,1612405943
port moresby,-9.4431,147.1797,32,66,20,6.17,PG,1612406011
pangai,-19.8,-174.35,30,79,75,2.57,TO,1612406015
kambove,-10.8764,26.5969,15.85,94,99,1.02,CD,1612406016
mao,39.8885,4.2658,11,100,75,1.54,ES,1612406018
balabac,7.9868,117.0645,28.16,76,67,8.13,PH,1612406019
coihaique,-45.5752,-72.0662,20,64,0,2.57,CL,1612406021
klaksvik,62.2266,-6.589,0,93,40,4.12,FO,1612405926
luanda,-8.8368,13.2343,26,83,20,3.09,AO,1612406024
fereydunshahr,32.941,50.121,-3.2,62,0,1.36,IR,1612406026
careiro da varzea,-3.2003,-59.8119,25,94,0,0.45,BR,1612406027
jalu,29.0331,21.5482,11.86,89,0,4.85,LY,1612406022
krasnoselkup,65.7,82.4667,-22.31,91,98,2.67,RU,1612406031
sinnamary,5.3833,-52.95,25.57,84,100,6.94,GF,1612406032
aripuana,-9.1667,-60.6333,23.71,97,67,0.46,BR,1612406034
vila franca do campo,37.7167,-25.4333,11,71,40,3.6,PT,1612406035
namibe,-15.1961,12.1522,21.07,78,45,3.64,AO,1612405905
svetlogorsk,52.6333,29.7333,0.68,98,100,3.37,BY,1612406039
lisa,43.8,25.1333,2,100,90,1.16,RO,1612406042
kavieng,-2.5744,150.7967,29.32,66,20,2.96,PG,1612406043
the valley,18.217,-63.0578,27,78,20,4.63,AI,1612406045
winslow,35.0242,-110.6974,13.33,51,99,3.58,US,1612405760
thunder bay,48.4001,-89.3168,-1,86,90,3.09,CA,1612405941
sorland,67.667,12.6934,1.94,79,90,12.1,NO,1612406050
berlevag,70.8578,29.0864,-1.6,94,100,9.42,NO,1612406051
phuthaditjhaba,-28.5242,28.8158,13.15,84,52,1.49,ZA,1612405931
weihai,37.5017,122.1136,2.04,71,0,5.09,CN,1612406055
dingle,10.9995,122.6711,26.92,81,82,6.84,PH,1612406056
praia da vitoria,38.7333,-27.0667,10,87,75,13.26,PT,1612406058
pedana,16.2667,81.1667,21,83,1,2.06,IN,1612406060
bin qirdan,33.1378,11.2197,15.44,44,2,3.88,TN,1612406061
alyangula,-13.8483,136.4192,31,74,75,3.09,AU,1612406063
ozu,33.5,132.55,9,71,75,8.23,JP,1612406064
mercedes,-34.6515,-59.4307,20.56,76,86,3.4,AR,1612406066
rocha,-34.4833,-54.3333,19,95,100,3.05,UY,1612406068
zyryanka,65.75,150.85,-28.52,86,100,8.4,RU,1612406069
marienburg,54.0359,19.0266,-2.22,91,100,1.79,PL,1612406071
goderich,43.7501,-81.7165,-10,85,0,1.54,CA,1612406072
tasiilaq,65.6145,-37.6368,-7.5,94,75,5.15,GL,1612405935
saint-francois,46.4154,3.9054,4.44,87,0,2.06,FR,1612406076
ilulissat,69.2167,-51.1,-21,41,5,4.63,GL,1612406077
zhuhai,22.2769,113.5678,23,64,0,2.57,CN,1612406079
beaverton,45.4871,-122.8037,6.67,81,90,0.49,US,1612405869
ergani,38.2653,39.7621,5,93,75,1.54,TR,1612406084
lavrentiya,65.5833,-171,-27.45,82,0,6.79,RU,1612406087
naze,28.3667,129.4833,18,52,40,3.6,JP,1612406088
iberia,29.9502,-91.7507,8.89,71,1,2.06,US,1612405855
avera,33.194,-82.5271,3,65,1,3.07,US,1612405953
severodvinsk,64.5635,39.8302,-14,85,40,5,RU,1612406093
pisco,-13.7,-76.2167,22,78,0,3.09,PE,1612406095
kilinochchi,9.3961,80.3982,25.31,72,14,5.62,LK,1612406096
nanortalik,60.1432,-45.2371,-9.56,83,68,5.85,GL,1612406098
devonport,-41.1667,146.35,21.11,75,83,2.68,AU,1612406099
severobaykalsk,55.65,109.3167,-17.52,91,100,1.52,RU,1612405929
hay river,60.8156,-115.7999,-25,77,100,2.57,CA,1612405925
sept-iles,50.2001,-66.3821,-2.78,86,100,4.12,CA,1612405916
kununurra,-15.7667,128.7333,26,100,75,2.57,AU,1612406085
upernavik,72.7868,-56.1549,-26.36,70,0,2.01,GL,1612406066
kulpahar,25.3167,79.65,17.26,31,11,2.07,IN,1612406109
jumla,29.2747,82.1838,4.97,48,0,1.32,NP,1612406111
ayolas,-27.4,-56.9,20.2,93,31,2.38,PY,1612406112
ariquemes,-9.9133,-63.0408,23.76,91,68,0.43,BR,1612406114
mareeba,-17,145.4333,30.56,70,92,2.57,AU,1612406115
leningradskiy,69.3833,178.4167,-32.29,85,14,3.32,RU,1612406117
correntina,-13.3433,-44.6367,21.68,84,89,0.23,BR,1612406119
sungairaya,0.7,108.9,27.66,78,92,4.1,ID,1612406081
kurilsk,45.2333,147.8833,-10.16,88,100,7.84,RU,1612405922
koumac,-20.5667,164.2833,27.53,76,31,6.28,NC,1612406123
puerto madero,14.7208,-92.4215,24,94,20,2.03,MX,1612406125
mata de sao joao,-12.5303,-38.2992,28,74,75,4.63,BR,1612406127
carroll,39.5501,-77.0164,2,60,1,5.14,US,1612406128
dongsheng,39.8161,109.9776,-3.32,66,0,6.87,CN,1612406130
tiksi,71.6872,128.8694,-31.65,86,99,1.34,RU,1612406131
three hills,51.7001,-113.2686,-19.44,77,41,1.54,CA,1612406133
dudhani,17.3667,76.3667,20.64,51,15,3.7,IN,1612406135
komsomolskiy,40.4272,71.7189,-2,80,0,1.03,UZ,1612406136
cabo san lucas,22.8909,-109.9124,20.56,77,20,1.54,MX,1612405931
ushtobe,45.2514,77.9838,-2.82,90,100,1.19,KZ,1612406139
guerrero negro,27.9769,-114.0611,16.86,77,98,7.85,MX,1612405946
grindavik,63.8424,-22.4338,2,75,0,12.35,IS,1612406143
yar-sale,66.8333,70.8333,-20.94,91,97,4.88,RU,1612405975
taltal,-25.4,-70.4833,18.61,72,61,0.55,CL,1612406146
gat,31.61,34.7642,15,12,47,0.89,IL,1612406149
bandarbeyla,9.4942,50.8122,21.14,76,3,5.97,SO,1612406152
thinadhoo,0.5333,72.9333,28.01,75,100,3.81,MV,1612406153
acarau,-2.8856,-40.12,26.1,82,91,6.34,BR,1612406155
tecozautla,20.5333,-99.6333,22,17,1,4.12,MX,1612406159
rabo de peixe,37.8,-25.5833,11,71,40,3.6,PT,1612406161
tautira,-17.7333,-149.15,28,74,20,1.03,PF,1612406162
la ronge,55.1001,-105.2842,-15,78,99,3.09,CA,1612406164
kudahuvadhoo,2.6708,72.8944,27.49,78,85,7.41,MV,1612406166
tokur,53.1333,132.9,-32.9,83,99,1.61,RU,1612406167
podosinovets,60.2776,47.0659,-8.51,96,100,4.28,RU,1612406169
padang,-0.9492,100.3543,29,70,40,1.03,ID,1612405921
chicama,-7.8447,-79.1469,21,83,96,3.6,PE,1612405925
tual,-5.6667,132.75,28.78,76,100,8.36,ID,1612405962
mitu,1.1983,-70.1733,22.71,96,85,0.79,CO,1612406175
ixtapa,20.7,-105.2,21.67,94,1,0.26,MX,1612406177
rovaniemi,66.5,25.7167,-11,85,90,5.14,FI,1612406178
vestmannaeyjar,63.4427,-20.2734,2.48,84,100,13.11,IS,1612406180
gunjur,13.2019,-16.7339,21,68,0,3.97,GM,1612406181
yerbogachen,61.2767,108.0108,-24.48,89,100,0.21,RU,1612406183
borogontsy,62.6683,131.1683,-40,77,1,1.31,RU,1612406185
torbay,47.6666,-52.7314,9.44,100,90,7.2,CA,1612406115
ewa beach,21.3156,-158.0072,24,69,75,5.14,US,1612406188
aden,12.7794,45.0367,23.07,78,0,5.54,YE,1612405943
sterling,39.0062,-77.4286,1.11,55,1,11.83,US,1612406193
nurota,40.5614,65.6886,4,93,42,3.09,UZ,1612406195
upata,8.0086,-62.3989,24.44,94,26,1.79,VE,1612406198
san quintin,30.4833,-115.95,15.8,79,46,5.17,MX,1612405943
crib point,-38.35,145.2,28.33,56,100,1.98,AU,1612406203
mogadishu,2.0371,45.3438,24.04,86,22,7.17,SO,1612406204
basco,20.4487,121.9702,22.04,75,3,11.66,PH,1612405939
yumen,40.2833,97.2,-1.24,66,16,12.64,CN,1612405975
kahului,20.8947,-156.47,20,77,40,12.35,US,1612405921
fort collins,40.5853,-105.0844,5.56,42,20,13.38,US,1612405995
pangody,65.85,74.4859,-17.66,93,100,2.77,RU,1612406214
abu zabad,12.35,29.25,22.68,21,29,6.06,SD,1612406215
belaya gora,68.5333,146.4167,-29.28,87,96,1.66,RU,1612406084
orotukan,62.2667,151.7,-27.21,85,100,3.5,RU,1612406219
rawson,-43.3002,-65.1023,21.5,53,9,5.99,AR,1612406220
arucas,28.1198,-15.5233,16,72,40,2.57,ES,1612406222
chunskiy,56.0815,99.6342,-9.06,95,90,5.05,RU,1612406224
deputatskiy,69.3,139.9,-31.11,89,98,0.3,RU,1612406227
manggar,-2.8833,108.2667,28.18,71,100,6.96,ID,1612406228
turukhansk,65.8167,87.9833,-21.3,92,100,1.12,RU,1612406061
moba,33.2288,105.0179,2.79,70,98,2.1,CN,1612406232
svetlyy,54.675,20.1347,-2,80,90,8,RU,1612406233
hami,42.8,93.45,-0.09,77,40,2.35,CN,1612406235
tahoua,14.8888,5.2692,19.25,24,0,7.21,NE,1612406098
nishihara,26.1842,127.7558,21,39,40,3.09,JP,1612406238
saint anthony,45.0205,-93.218,0,80,75,4.12,US,1612406085
boa vista,2.8197,-60.6733,28,69,40,2.57,BR,1612406014
casas adobes,32.3234,-110.9951,21.67,34,81,0.45,US,1612406243
changji,44.0167,87.3167,-10,85,88,1.21,CN,1612406244
ormara,25.2088,64.6357,18.51,31,0,9.79,PK,1612406246
matara,5.9485,80.5353,26.08,72,65,3.43,LK,1612406247
flin flon,54.7682,-101.865,-19.3,92,100,4.15,CA,1612406249
evensk,61.95,159.2333,-12.54,89,100,15.13,RU,1612406252
mangrol,21.1167,70.1167,19.33,74,0,4.91,IN,1612406254
marsh harbour,26.5412,-77.0636,16.95,57,0,6.99,BS,1612406255
joniskis,56.2403,23.6153,-5,86,90,3.6,LT,1612406257
akyab,20.15,92.9,20.33,43,0,2.51,MM,1612406259
ust-nera,64.5667,143.2,-25.52,81,100,2.24,RU,1612406260
tete,-16.1564,33.5867,24,100,40,0.93,MZ,1612406262
taksimo,56.3444,114.8794,-28.81,80,100,0.89,RU,1612406263
milkovo,54.7167,158.6167,-11.68,84,100,8.65,RU,1612406265
goundam,16.4145,-3.6708,19.21,20,1,3.2,ML,1612406267
bilma,18.6853,12.9164,14.39,36,0,6.11,NE,1612406268
san matias,-16.3667,-58.4,24.02,92,98,1.04,BO,1612406270
bereznik,62.8551,42.7072,-8.9,97,100,3.54,RU,1612406272
puerto colombia,10.9878,-74.9547,25,88,20,6.17,CO,1612406273
tezu,27.9167,96.1667,23.23,21,2,0.74,IN,1612406276
namatanai,-3.6667,152.4333,29.12,71,89,3.09,PG,1612406278
iquitos,-3.7481,-73.2472,26,89,40,2.06,PE,1612406279
sioux lookout,50.1001,-91.917,-2,80,90,2.57,CA,1612406281
sarangani,5.4033,125.4636,27.8,77,100,9.29,PH,1612406284
ngunguru,-35.6167,174.5,20.28,73,36,4.5,NZ,1612406286
marawi,7.9986,124.2928,27.78,84,1,2.68,PH,1612406288
wahiawa,21.5028,-158.0236,24,94,90,2.23,US,1612406049
luderitz,-26.6481,15.1594,18.29,71,0,6.21,NA,1612406291
port arthur,38.8,121.2667,3,48,0,6,CN,1612406292
borba,-4.3878,-59.5939,24.62,93,99,0.64,BR,1612406294
lucea,18.451,-78.1736,24,69,75,3.6,JM,1612406296
kommunisticheskiy,61.6789,64.4819,-17.56,92,1,2.46,RU,1612406299
ko samui,9.5357,99.9357,28,69,20,6.17,TH,1612406300
plouzane,48.3833,-4.6167,9,93,90,4.63,FR,1612406302
saldanha,-33.0117,17.9442,16,94,9,3.6,ZA,1612406304
kaduqli,11.0167,29.7167,27.76,21,80,2.33,SD,1612406305
tomatlan,19.9333,-105.25,18.59,91,0,0.47,MX,1612406307
guilin,25.2819,110.2864,15,77,90,3,CN,1612406308
lasa,46.6166,10.7002,3.33,86,90,2.01,IT,1612406310
orgtrud,56.1832,40.6149,-2.24,98,100,3.41,RU,1612406313
kiruna,67.8557,20.2251,-8,79,75,5.14,SE,1612406315
najran,17.4924,44.1277,12,43,0,0.93,SA,1612406316
vanimo,-2.6741,141.3028,26.92,81,100,0.54,PG,1612406093
cap malheureux,-19.9842,57.6142,24.44,86,2,1.34,MU,1612406110
coronado,32.6859,-117.1831,14.44,82,40,2.06,US,1612406323
port hardy,50.6996,-127.4199,5,100,90,1.54,CA,1612406324
roros,62.5747,11.3842,-33,75,20,1.54,NO,1612406326
santander,43.4647,-3.8044,15,55,0,5.14,ES,1612406328
bismarck,46.8083,-100.7837,-8,73,90,10.8,US,1612406331
kadoma,34.7333,135.5833,8,65,75,3.6,JP,1612406332
pakala,13.4667,79.1167,20,83,20,0.72,IN,1612406334
el tigre,8.8875,-64.2454,24.88,77,0,7.08,VE,1612406332
palmer,42.1584,-72.3287,0,64,90,5.14,US,1612406337
kokoda,-8.8785,147.7407,26.78,62,96,2.03,PG,1612406339
banepa,27.6298,85.5214,7,87,20,1.03,NP,1612406246
north bend,43.4065,-124.2243,8,87,1,1.18,US,1612406342
katsuura,35.1333,140.3,11.67,37,20,11.83,JP,1612406344
igarka,67.4667,86.5833,-27.46,88,100,2.81,RU,1612406345
tahta,26.7693,31.5021,13,44,0,4.63,EG,1612406348
melilla,35.2937,-2.9383,15,72,0,3.09,ES,1612406222
whitefish,48.4111,-114.3376,0,80,75,3.6,US,1612406127
atar,20.5169,-13.0499,18.14,25,100,0.48,MR,1612406107
yarada,17.65,83.2667,18,68,0,1.03,IN,1612406356
sandpoint,48.2766,-116.5533,1.11,93,75,1.54,US,1612406337
zhanaozen,43.3,52.8,4.56,73,94,2.79,KZ,1612406361
college,64.8569,-147.8028,-21,71,90,1.54,US,1612406236
zhigansk,66.7697,123.3711,-40.17,78,47,3.77,RU,1612406366
toyooka,35.5333,134.8333,2,93,75,1.54,JP,1612406097
tamiahua,21.2667,-97.45,18.7,87,51,4.19,MX,1612406369
souillac,-20.5167,57.5167,25,88,40,1.03,MU,1612406371
cherkasskoye,52.4333,47.2167,0.42,96,100,2.6,RU,1612406373
kailua,21.4022,-157.7394,23,68,90,7.2,US,1612406374
pochutla,15.7432,-96.4661,21.96,86,0,1,MX,1612406376
zalari,53.5584,102.5065,-4.27,96,100,4.9,RU,1612406377
castro,-24.7911,-50.0119,20.6,90,100,1.11,BR,1612406380
anadyr,64.75,177.4833,-19,78,40,17,RU,1612406382
whitehorse,60.7161,-135.0538,-20.56,77,20,2.06,CA,1612406135
kamina,-8.7386,24.9906,16.28,97,90,1.29,CD,1612406385
shelburne,44.0787,-80.2041,-5,81,0,4.96,CA,1612406387
baoshan,46.5586,131.4244,-20.08,84,10,6.6,CN,1612406388
lalin,42.7167,-8.1167,9.44,93,75,5.14,ES,1612406390
constitucion,-35.3333,-72.4167,18.78,59,0,3.55,CL,1612406392
zlobin,45.2924,14.6541,12.22,94,40,3.6,HR,1612406393
schattdorf,46.8655,8.6547,8,71,20,2.57,CH,1612406395
kruisfontein,-34.0033,24.7314,19.44,87,45,0.45,ZA,1612406396
xinzhou,38.4092,112.7333,-0.15,62,100,0.39,CN,1612406398
cadiz,36.5,-5.75,15,88,90,0.51,ES,1612406400
inuvik,68.3499,-133.7218,-38,67,22,1.78,CA,1612406401
iregszemcse,46.6929,18.1858,9.44,74,100,4.02,HU,1612406403
severo-yeniseyskiy,60.3725,93.0408,-17.94,94,100,1.84,RU,1612406405
haapiti,-17.5667,-149.8667,28,74,20,1.03,PF,1612406406
monrovia,6.3005,-10.7969,24,100,40,3.33,LR,1612406408
sihora,23.4833,80.1167,18.48,27,0,2.26,IN,1612406409
palestine,31.9216,35.2033,15,67,0,2.06,PS,1612406411
handan,36.6006,114.4678,8.26,38,98,5.95,CN,1612406413
rafaela,-31.2503,-61.4867,19.44,94,0,0.45,AR,1612406414
ajaccio,42,8.9167,8,93,0,2.57,FR,1612406416
ashqelon,31.6693,34.5715,15,14,43,0.89,IL,1612406417
noshiro,40.2039,140.0242,-5,93,75,1.54,JP,1612406419
chadiza,-14.0678,32.4392,18.45,94,100,0.69,ZM,1612406421
methoni,36.8197,21.7049,11.11,100,0,1.54,GR,1612406422
opuwo,-18.0607,13.84,20.69,42,77,1.43,NA,1612406424
esna,25.2934,32.554,15,63,20,5.07,EG,1612406425
puri,19.8,85.85,17,77,0,3.29,IN,1612406427
mbandaka,0.0487,18.2603,22.59,93,95,1.04,CD,1612406429
weligama,5.9667,80.4167,26.05,74,66,2.31,LK,1612406430
narsaq,60.9167,-46.05,-10,44,39,1.54,GL,1612406432
portobelo,9.55,-79.65,26.11,99,80,7.82,PA,1612406433
petropavlovka,50.6114,105.3196,-8.91,89,83,2.19,RU,1612406435
great bend,38.3645,-98.7648,10,66,1,8.75,US,1612406361
rio tercero,-32.173,-64.1141,16.11,95,0,0.45,AR,1612406438
ada,43.4166,-116.1262,2,87,1,4.57,US,1612406366
morgantown,39.6295,-79.9559,-4.44,68,1,1.54,US,1612406168
nuuk,64.1835,-51.7216,-14,61,20,2.06,GL,1612406443
verkh-usugli,52.7,115.1667,-23.35,85,100,1.02,RU,1612406445
santa maria,-29.6842,-53.8069,21,94,90,7.2,BR,1612406446
ryotsu,38.0833,138.4333,4,93,75,13.89,JP,1612406448
mar del plata,-38.0023,-57.5575,19,82,40,5.66,AR,1612406351
kidal,18.4411,1.4078,18.49,22,0,5.23,ML,1612406184
broome,42.2506,-75.833,-2.22,58,90,7.72,US,1612406453
muchkapskiy,51.8513,42.4717,1.39,98,100,4.31,RU,1612406456
santa cruz de tenerife,28.4682,-16.2546,17.22,94,90,5.14,ES,1612406458
elko,41.0002,-115.5012,-0.56,80,1,6.17,US,1612406459
oyon,-10.6681,-76.7731,7.56,71,100,1.25,PE,1612406461
aklavik,68.2191,-135.0107,-38,66,1,2.29,CA,1612406462
vzmorye,54.6961,20.2361,-2,80,90,8,RU,1612406464
sao gabriel da cachoeira,-0.1303,-67.0892,23.71,97,100,0.69,BR,1612406466
havelock,34.8791,-76.9013,5,52,1,4.12,US,1612406467
mana,5.6592,-53.7767,25.31,85,98,6.44,GF,1612406469
xiaolan,22.6731,113.2295,23.33,69,0,0.89,CN,1612406470
batagay-alyta,67.8006,130.4114,-37.29,71,23,0.55,RU,1612406474
kosikha,53.3617,84.5822,-2,93,75,8,RU,1612406475
isla mujeres,21.2311,-86.731,22.22,77,1,3.09,MX,1612406390
bubaque,11.2833,-15.8333,25.35,66,53,5.81,GW,1612406478
vagur,61.4732,-6.8119,2.76,80,87,12.02,FO,1612406480
mingaora,34.7758,72.3625,7.25,51,42,2.57,PK,1612406482
agadez,19.75,10.25,13.31,38,0,4.93,NE,1612406483
quatre cocos,-20.2078,57.7625,25,88,40,1.03,MU,1612406485
antofagasta,-23.65,-70.4,18,82,0,1.03,CL,1612406264
saint-leu,-21.15,55.2833,25,57,0,1.11,RE,1612406492
sayyan,15.1718,44.3244,3.93,67,0,1.31,YE,1612406494
pundaguitan,6.3711,126.1689,27.53,77,23,7.29,PH,1612406496
sola,-13.8833,167.55,27.65,79,100,4.85,VU,1612406497
surgut,61.25,73.4167,-15,92,40,3,RU,1612406290
norden,53.6,7.2,0.56,91,100,2.24,DE,1612406501
tommot,58.9564,126.2925,-27.04,82,96,0.87,RU,1612406502
kargil,34.5667,76.1,-17.92,77,100,0.55,IN,1612406504
vila,42.0304,-8.1588,8.33,93,98,2.06,PT,1612406507
aksha,50.2814,113.2867,-12.1,86,36,1.61,RU,1612406509
cumberland,35.0502,-78.8664,7,23,1,4.12,US,1612406510
paamiut,61.994,-49.6678,-12.38,70,0,1.16,GL,1612406468
char bhadrasan,23.3167,90.2167,17,82,0,3.02,BD,1612406513
ahipara,-35.1667,173.1667,22.69,57,2,1.3,NZ,1612406515
kavaratti,10.5669,72.642,27.42,64,52,3.5,IN,1612406517
altay,47.8667,88.1167,-7.95,90,100,0.53,CN,1612406518
hameenlinna,60.996,24.4643,-17,85,0,3.09,FI,1612406520
oranjemund,-28.55,16.4333,16.14,94,26,3.09,NA,1612406477
nargana,9.4428,-78.5906,26.07,82,29,6.47,PA,1612406523
ifanadiana,-21.3,47.6333,21.28,94,50,0.66,MG,1612406525
ipixuna,-1.7625,-48.8043,25,94,40,4.63,BR,1612406528
kasulu,-4.5767,30.1025,20,100,20,0.69,TZ,1612406529
tucumcari,35.1717,-103.725,17,34,1,6.69,US,1612406293
algeciras,36.1333,-5.4505,15,77,100,5.14,ES,1612406533
djibo,14.1022,-1.6306,21.61,18,15,4.15,BF,1612406534
am timan,11.0297,20.2827,21.44,21,0,3.7,TD,1612406536
sinegorye,62.0788,150.477,-27.29,84,100,3.08,RU,1612406537
inhambane,-23.865,35.3833,25.19,90,8,2.25,MZ,1612406541
khandyga,62.6667,135.6,-42.73,75,21,0.47,RU,1612406542
preobrazheniye,42.9019,133.9064,-13.11,77,0,6.71,RU,1612406544
shaoyang,27.2315,111.4525,11.82,83,100,3.16,CN,1612406518
nhulunbuy,-12.2333,136.7667,27,89,90,6.69,AU,1612406547
olinda,-8.0089,-34.8553,26,69,40,2.57,BR,1612406508
harper,4.375,-7.7169,25.66,88,2,2.94,LR,1612406550
filadelfia,39.9523,-75.1638,1.11,60,75,6.17,US,1612406534
husavik,66.0449,-17.3389,-9,73,0,2.06,IS,1612406553
alihe,50.5667,123.7167,-22.6,76,0,1.54,CN,1612406555
petropavlovsk-kamchatskiy,53.0452,158.6483,-8,45,100,9,RU,1612406558
sokoto,13.0609,5.239,19.87,22,0,5.87,NG,1612406560
santa isabel do rio negro,-0.4139,-65.0192,24.36,91,100,1.01,BR,1612406561
nome,64.5011,-165.4064,-20,59,1,3.6,US,1612406372
cockburn town,21.4612,-71.1419,22.82,55,49,2.43,TC,1612406285
etchoropo,26.7667,-109.6667,20,63,84,3.39,MX,1612406566
puerto escondido,15.85,-97.0667,25.04,76,2,1.52,MX,1612406535
tessalit,20.1986,1.0114,18.62,23,0,6.7,ML,1612406505
sovetskiy,61.3614,63.5842,-16.38,92,57,2.04,RU,1612406571
ujhartyan,47.2198,19.3864,10.56,87,100,3.6,HU,1612406572
bolo,13.7899,120.9817,26.67,74,81,5.81,PH,1612406574
talnakh,69.4865,88.3972,-28.76,86,99,1.44,RU,1612406525
freehold,40.2601,-74.2738,0,69,90,6.17,US,1612406577
havoysund,70.9963,24.6622,-2,64,20,8.23,NO,1612406579
walvis bay,-22.9575,14.5053,18.89,86,68,3.25,NA,1612406580
groton,41.3501,-72.0784,1,69,90,4.12,US,1612406582
dodoma,-6.1722,35.7395,20,83,20,5.14,TZ,1612406584
that phanom,16.9364,104.7104,27.22,64,0,2.06,TH,1612406585
puro,12.4841,123.3827,27.21,78,83,7.86,PH,1612406587
torbeyevo,54.0797,43.2473,0.17,99,100,4.06,RU,1612406588
kingseat,56.0974,-3.4084,2.78,100,40,5.66,GB,1612406590
katobu,-4.9408,122.5276,27.28,83,100,2.79,ID,1612406592
chai badan,15.2,101.1333,30,37,0,6.99,TH,1612406593
kamenka,51.3223,42.7678,2.22,97,100,3.51,RU,1612406595
ajdabiya,30.7554,20.2263,13.54,89,0,2.97,LY,1612406596
byron bay,-28.65,153.6167,29,61,24,5.14,AU,1612406360
bathsheba,13.2167,-59.5167,26,69,40,11.83,BB,1612406601
santa cruz,-17.8,-63.1667,24,83,75,6.69,BO,1612406505
christchurch,-43.5333,172.6333,17.22,51,75,7.2,NZ,1612406418
