City,Lat,Lng,Max_Temp,Humidity,Cloudiness,Wind_Speed,Country,Date
belmonte,-15.8631,-38.8828,26,73,20,5.14,BR,1612222261
esperance,-33.8667,121.9,17,77,0,4.63,AU,1612221850
shimoda,34.6667,138.95,14,88,75,6.69,JP,1612222265
ponta do sol,32.6667,-17.1,15,70,15,1.34,PT,1612222266
asau,46.4333,26.4,-1.67,66,79,0.2,RO,1612222268
kapaa,22.0752,-159.319,25,78,75,7.72,US,1612222165
mataura,-46.1927,168.8643,24.37,42,37,1.93,NZ,1612222271
albany,42.6001,-73.9662,-3.89,78,100,0.45,US,1612222273
san patricio,28.017,-97.5169,22,16,1,2.57,US,1612222274
sunndalsora,62.6754,8.5515,-3,80,90,1.03,NO,1612222276
charleston,32.7766,-79.9309,6.11,100,90,4.63,US,1612222032
aviles,43.5547,-5.9248,15,67,20,2.57,ES,1612222279
douglas,41.3,-96.167,-1,74,1,1.54,US,1612222201
ribeira grande,38.5167,-28.7,15.21,75,91,12.13,PT,1612222282
rikitea,-23.1203,-134.9692,25.84,76,61,6.32,PF,1612222284
parrita,9.5201,-84.3225,26,64,20,9.26,CR,1612222287
sitka,57.0531,-135.33,2,80,90,5.14,US,1612222289
port elizabeth,-33.918,25.5701,16,67,0,2.57,ZA,1612222290
ndele,8.4109,20.6473,24.44,26,7,1.78,CF,1612222295
novaya bryan,51.7159,108.2691,-35,75,39,0.86,RU,1612222297
mbandaka,0.0487,18.2603,23.72,82,62,0.86,CD,1612222298
avarua,-21.2078,-159.775,29,70,100,3.6,CK,1612222300
carmona,14.3,121.0167,24.44,78,75,2.57,PH,1612222302
vostok,46.4856,135.8833,-30.27,86,99,2.7,RU,1612222304
port alfred,-33.5906,26.891,16.67,78,53,0.89,ZA,1612222305
namibe,-15.1961,12.1522,22.64,76,54,1.92,AO,1612222308
cape town,-33.9258,18.4232,18.89,59,0,3.09,ZA,1612222145
tiznit,29.5833,-9.5,17.46,58,0,0.38,MA,1612222312
isangel,-19.55,169.2667,27,83,90,4.12,VU,1612222313
klaksvik,62.2266,-6.589,2,75,20,6.69,FO,1612222315
novogurovskiy,54.4678,37.3428,-16,85,65,1.67,RU,1612222317
georgetown,5.4112,100.3354,26.11,88,20,2.06,MY,1612222318
bubaque,11.2833,-15.8333,25.86,75,1,3.67,GW,1612222320
leningradskiy,69.3833,178.4167,-18.53,86,100,13.16,RU,1612222321
yellowknife,62.456,-114.3525,-19.44,77,90,4.63,CA,1612222087
alofi,-19.0595,-169.9187,27,83,90,5.14,NU,1612222326
bukachacha,52.9833,116.9167,-34.21,78,0,1.5,RU,1612222328
tabora,-5.0167,32.8,18.41,93,100,1.17,TZ,1612222330
vestmanna,62.1564,-7.1664,2,75,20,6.69,FO,1612222331
thompson,55.7435,-97.8558,-9,86,75,1.54,CA,1612222206
yabelo,4.8833,38.0833,15.8,39,95,8.23,ET,1612222334
tuktoyaktuk,69.4541,-133.0374,-24,77,90,3.6,CA,1612222336
hasaki,35.7333,140.8333,6,93,75,3.6,JP,1612222338
saint george,37.1041,-113.5841,14.44,33,20,3.6,US,1612222289
hobart,-42.8794,147.3294,18.33,45,40,5.66,AU,1612222181
bambous virieux,-20.3428,57.7575,27,83,40,5.66,MU,1612222342
coquimbo,-29.9533,-71.3436,18,72,0,4.12,CL,1612221568
aksarka,66.5606,67.7975,-11.47,96,90,4.06,RU,1612222346
mayumba,-3.432,10.6554,25.72,86,99,1.47,GA,1612222347
ushuaia,-54.8,-68.3,10,76,75,12.35,AR,1612222326
barbastro,42.0356,0.1269,11,87,90,5.14,ES,1612222350
new norfolk,-42.7826,147.0587,18.33,43,15,1.79,AU,1612222354
dikson,73.5069,80.5464,-27.93,84,71,6.66,RU,1612222355
busselton,-33.65,115.3333,21.11,65,0,1.34,AU,1612222357
vondrozo,-22.8167,47.2833,21.66,100,59,0.47,MG,1612222358
khatanga,71.9667,102.5,-34.65,83,0,4.53,RU,1612222360
sao filipe,14.8961,-24.4956,22.53,74,0,3.32,CV,1612222363
sabang,5.8933,95.3214,27.54,76,94,7.18,ID,1612222365
mukhen,48.1,136.1,-28.14,83,100,5.19,RU,1612222366
sept-iles,50.2001,-66.3821,-8,73,0,1.03,CA,1612222215
husavik,66.0449,-17.3389,-15,85,0,2.06,IS,1612222370
boende,-0.2167,20.8667,23.96,77,62,0.64,CD,1612222371
oyon,-10.6681,-76.7731,8.62,75,99,2.28,PE,1612222373
kashan,33.9831,51.4364,7.53,53,0,0.38,IR,1612222375
souillac,-20.5167,57.5167,27,83,40,5.66,MU,1612222376
iqaluit,63.7506,-68.5145,-27,69,75,4.12,CA,1612222378
reyes,-14.3167,-67.3833,32,62,20,5.14,BO,1612222379
hithadhoo,-0.6,73.0833,27.83,69,43,1.35,MV,1612222381
kavieng,-2.5744,150.7967,28.93,74,100,5.24,PG,1612222383
hermanus,-34.4187,19.2345,17.22,71,0,4.47,ZA,1612222384
tasiilaq,65.6145,-37.6368,-8,73,90,8.23,GL,1612222386
kaitangata,-46.2817,169.8464,18.89,72,44,2.68,NZ,1612222387
vardo,70.3705,31.1107,-4,79,40,5.66,NO,1612222389
vaini,-21.2,-175.2,29,74,75,11.32,TO,1612222391
jamestown,42.097,-79.2353,-3.33,86,90,4.12,US,1612222392
yingkou,40.6648,122.2283,-16.12,81,0,1.94,CN,1612222394
halifax,44.6453,-63.5724,-0.56,80,93,2.06,CA,1612222197
teluk nibung,3.001,99.8164,23.66,92,94,1.95,ID,1612222397
katangli,51.7102,143.2326,-28.74,85,100,4.26,RU,1612222399
karratha,-20.7377,116.8463,27.45,80,100,8.89,AU,1612222271
kibuye,-2.0597,29.3482,18.3,77,96,0.45,RW,1612222403
barrow,71.2906,-156.7887,-29,69,1,6.69,US,1612222283
usinsk,65.9939,57.5281,-7.5,97,99,8.74,RU,1612222406
los llanos de aridane,28.6585,-17.9182,18,82,20,4.63,ES,1612222409
bayshore gardens,27.4253,-82.5904,13,62,90,10.29,US,1612222411
nikolskoye,59.7035,30.7861,-3,86,75,3,RU,1612222412
puerto ayora,-0.7393,-90.3518,30,66,0,4.12,EC,1612222414
kutum,14.2,24.6667,17.63,27,0,3.01,SD,1612222416
otoka,44.96,16.1792,2.51,86,100,0.48,BA,1612222417
nushki,29.5542,66.0215,11.57,42,0,2.82,PK,1612222419
port augusta,-32.5,137.7667,19.44,59,0,8.23,AU,1612222421
santa marta,11.2408,-74.199,30.56,55,64,6.42,CO,1612222302
rio gallegos,-51.6226,-69.2181,18,45,0,14.4,AR,1612222364
hambantota,6.1241,81.1185,24.84,78,53,6.37,LK,1612222425
atuona,-9.8,-139.0333,25.81,76,5,6.41,PF,1612222429
jalu,29.0331,21.5482,12.68,72,18,4.47,LY,1612222430
bluff,-46.6,168.3333,17.54,69,28,0.23,NZ,1612222432
uglekamensk,43.2172,133.2303,-19.69,80,77,4.28,RU,1612222433
inongo,-1.95,18.2667,23.68,87,76,1.15,CD,1612222435
codrington,-38.2667,141.9667,14.97,64,98,4.97,AU,1612222437
xingyi,24.1877,102.817,5.19,93,1,0.88,CN,1612222438
lata,40.1629,-8.3327,13.89,96,93,2.24,PT,1612222440
luanda,-8.8368,13.2343,27,78,75,3.09,AO,1612222441
noumea,-22.2763,166.4572,26.67,78,75,5.14,NC,1612222303
saint-philippe,-21.3585,55.7679,26.11,83,75,4.63,RE,1612222446
fez,34.0372,-4.9998,9,93,20,3.09,MA,1612222448
mar del plata,-38.0023,-57.5575,19.44,77,75,5.14,AR,1612222151
pokrovsk,48.282,37.1758,7.75,87,100,5.65,UA,1612222453
cimarron hills,38.8586,-104.6989,10,27,75,3.09,US,1612222454
basco,20.4487,121.9702,22.98,81,9,8.07,PH,1612222456
rawson,-43.3002,-65.1023,24.05,29,0,9.74,AR,1612222367
lavrentiya,65.5833,-171,-13.94,86,100,9.43,RU,1612222459
punta arenas,-53.15,-70.9167,12,71,75,9.77,CL,1612222324
mandalgovi,45.7625,106.2708,-19.35,69,29,1.09,MN,1612222462
gogrial,8.5332,28.1004,24.07,30,18,2.78,SS,1612222464
bluffton,32.2371,-80.8604,7.78,65,90,3.6,US,1612222350
barrhead,55.7992,-4.3929,2,87,100,7.2,GB,1612222467
skjervoy,70.0311,20.9714,-1.21,86,78,3.64,NO,1612222470
saskylakh,71.9167,114.0833,-35.55,83,100,3.31,RU,1612222472
fairbanks,64.8378,-147.7164,-22,59,1,4.12,US,1612222255
sumenep,-7.0167,113.8667,25.92,85,100,6.37,ID,1612222477
hualmay,-11.0964,-77.6139,21.67,78,68,4.79,PE,1612222479
suntar,62.1444,117.6319,-36.81,82,100,2.38,RU,1612222480
rutana,-3.8667,30.1,13.01,100,98,1.34,BI,1612222482
kahului,20.8947,-156.47,27,57,40,8.23,US,1612222483
cody,44.5263,-109.0565,11,11,1,5.14,US,1612222485
cabo san lucas,22.8909,-109.9124,22.22,73,75,5.14,MX,1612222487
kavaratti,10.5669,72.642,27.34,73,1,3.53,IN,1612222488
pemangkat,1.1667,108.9667,24.83,88,99,3.88,ID,1612222490
novyy urengoy,66.0833,76.6333,-18.02,92,100,9.14,RU,1612222423
praia da vitoria,38.7333,-27.0667,16.11,77,40,5.15,PT,1612222493
faanui,-16.4833,-151.75,27.49,76,16,5.99,PF,1612222476
norman wells,65.282,-126.8329,-27,69,90,4.63,CA,1612222496
ahipara,-35.1667,173.1667,22.86,50,0,1.9,NZ,1612222498
doka,13.5167,35.7667,23.79,33,0,5.89,SD,1612222499
dryden,49.7833,-92.7503,-7,86,90,1.03,CA,1612222451
airai,-8.9266,125.4092,19.98,90,52,1.03,TL,1612222503
fare,-16.7,-151.0167,27.3,76,9,6.17,PF,1612222504
samana,19.2056,-69.3369,27,78,20,4.12,DO,1612222506
cidreira,-30.1811,-50.2056,24.46,84,3,4.73,BR,1612222507
rolante,-29.6506,-50.5758,29,61,20,1.54,BR,1612222509
arraial do cabo,-22.9661,-42.0278,24.92,85,96,10.93,BR,1612222496
bartica,6.4,-58.6167,26,83,0,5.14,GY,1612222512
les cayes,18.2,-73.75,23.9,82,25,1.27,HT,1612222514
catia la mar,10.6038,-67.0303,28,54,20,4.78,VE,1612222331
sao joao da barra,-21.6403,-41.0511,25.29,83,80,7.98,BR,1612222520
port-gentil,-0.7193,8.7815,27,89,20,2.06,GA,1612222345
nelson bay,-32.7167,152.15,19,100,75,4.12,AU,1612222523
carnarvon,-24.8667,113.6333,29,58,90,8.23,AU,1612222525
flinders,-34.5833,150.8552,21.11,73,75,3.09,AU,1612222526
mitsamiouli,-11.3847,43.2844,27.95,67,100,0.76,KM,1612222528
sao joao da ponte,-15.9292,-44.0078,21.55,80,99,1.94,BR,1612222530
goderich,43.7501,-81.7165,-4,58,100,5.66,CA,1612222531
lebu,-37.6167,-73.65,14.34,84,30,8.13,CL,1612222533
platonovka,52.7106,41.952,-1.13,99,100,2.44,RU,1612222534
lazaro cardenas,17.9583,-102.2,26.87,70,0,3.61,MX,1612222442
tuatapere,-46.1333,167.6833,22.54,50,48,1.65,NZ,1612222538
ucluelet,48.9329,-125.5528,8.33,93,90,2.06,CA,1612222350
lyuban,52.7985,28.0048,-9.92,92,86,1.87,BY,1612222541
laguna,38.421,-121.4238,20,48,1,3.6,US,1612222521
la libertad,-2.2333,-80.9,27,74,0,4.63,EC,1612222545
inirida,3.8653,-67.9239,24.44,94,100,0.47,CO,1612222546
hamilton,39.1834,-84.5333,-2,74,90,3.09,US,1612222200
cabedelo,-6.9811,-34.8339,26,83,40,2.06,BR,1612222549
kuminskiy,58.6667,66.5667,-7.58,96,96,3.89,RU,1612222551
tura,25.5198,90.2201,11.49,57,0,1.18,IN,1612222553
butaritari,3.0707,172.7902,27.46,84,52,7.29,KI,1612222554
torzhok,57.0436,34.9622,-10.32,96,75,2.58,RU,1612222556
hilo,19.7297,-155.09,27,50,1,4.63,US,1612222557
jacareacanga,-6.2222,-57.7528,25.43,80,57,0.72,BR,1612222559
jumla,29.2747,82.1838,0.76,56,0,1.65,NP,1612222561
fort-shevchenko,44.5086,50.263,6.18,83,0,7.83,KZ,1612222562
fort nelson,58.8053,-122.7002,-21,71,75,4.12,CA,1612222564
faya,18.3851,42.4509,13,71,0,1.54,SA,1612222566
olafsvik,64.8945,-23.7142,1.57,81,100,5.75,IS,1612222567
srednekolymsk,67.45,153.6833,-21.51,91,100,4.26,RU,1612222569
bengkulu,-3.8004,102.2655,24.4,83,93,2.65,ID,1612222570
billings,45.7833,-108.5007,13,15,75,6.17,US,1612222574
magway,20.15,94.9167,12.67,41,84,1.22,MM,1612222575
kamaishi,39.2667,141.8833,4,93,75,2.06,JP,1612222577
miandrivazo,-19.5167,45.4667,26.36,82,81,0.58,MG,1612222579
duluth,46.7833,-92.1066,-4,74,90,2.57,US,1612222341
praya,14.9215,-23.5087,22,78,0,8.23,CV,1612222582
grindavik,63.8424,-22.4338,0,86,75,4.63,IS,1612222585
alta floresta,-9.8756,-56.0861,23.66,91,100,0.72,BR,1612222587
waipawa,-41.4122,175.5153,20.56,63,0,4.12,NZ,1612222588
pisco,-13.7,-76.2167,23.33,64,40,7.2,PE,1612222503
severo-kurilsk,50.6789,156.125,-7.1,88,92,1.63,RU,1612222552
taoudenni,22.6783,-3.9836,21.04,24,81,4.76,ML,1612222593
tezu,27.9167,96.1667,13.61,44,2,1.59,IN,1612222595
college,64.8569,-147.8028,-22,54,1,2.57,US,1612222597
tecpan,14.7623,-90.9947,23.33,53,40,10.29,GT,1612222598
provideniya,64.3833,-173.3,-14.42,91,100,12.18,RU,1612222562
pevek,69.7008,170.3133,-15.17,89,100,7.94,RU,1612222601
secovce,48.7007,21.661,0,80,90,1.03,SK,1612222603
kampot,10.6167,104.1833,24,94,20,3.09,KH,1612222605
tondano,1.3038,124.9112,25,94,40,1.03,ID,1612222606
canakkale,40.0833,26.8333,13.89,82,75,6.17,TR,1612222608
puri,19.8,85.85,15,94,21,3.43,IN,1612222609
okha,53.5739,142.9478,-32.2,83,50,6.71,RU,1612222611
cedar city,37.6775,-113.0619,8,39,75,6.69,US,1612222328
nova olimpia,-14.7972,-57.2881,26.16,77,98,1.13,BR,1612222614
tual,-5.6667,132.75,28.35,75,100,4.98,ID,1612222616
olinda,-8.0089,-34.8553,26,69,75,3.6,BR,1612222618
innisfail,-17.5333,146.0333,27.78,55,100,0.89,AU,1612222619
bathsheba,13.2167,-59.5167,26,61,40,8.23,BB,1612222621
iracoubo,5.4802,-53.2011,24.9,83,99,6.41,GF,1612222622
port antonio,18.18,-76.4612,27,78,40,6.17,JM,1612222627
sheboygan,43.7333,-87.9334,-3,59,1,2.57,US,1612222629
omsukchan,62.5333,155.8,-35.6,80,100,2.3,RU,1612222630
gat,31.61,34.7642,19.44,39,0,2.24,IL,1612222444
yerbogachen,61.2767,108.0108,-39.59,78,32,1.47,RU,1612222634
bilibino,68.0546,166.4372,-20.14,85,100,4.02,RU,1612222635
caravelas,-17.7125,-39.2481,24.23,84,96,1.96,BR,1612222494
chokurdakh,70.6333,147.9167,-18.52,93,100,8.11,RU,1612222638
luna,10.9667,123.2333,26.23,84,93,6.43,PH,1612222642
san cristobal,7.7669,-72.225,29,61,40,3.09,VE,1612222643
victor harbor,-35.5667,138.6167,17.78,64,50,1.34,AU,1612222645
kruisfontein,-34.0033,24.7314,13.33,86,24,2.28,ZA,1612222648
nhulunbuy,-12.2333,136.7667,29,79,40,4.63,AU,1612222650
astoria,46.1879,-123.8313,9,87,90,2.57,US,1612222651
dashitou,43.3067,128.5114,-21.84,84,77,6.84,CN,1612222653
paamiut,61.994,-49.6678,-9.84,94,69,6.19,GL,1612222655
el seibo,18.7641,-69.0375,25,88,20,5.14,DO,1612222656
bulungu,-4.55,18.6,21.18,92,28,1.1,CD,1612222658
vilyuysk,63.7553,121.6247,-44.06,77,83,2.44,RU,1612222659
leshukonskoye,64.8989,45.7622,-10.17,96,100,4.12,RU,1612222661
talnakh,69.4865,88.3972,-24.28,88,97,3.34,RU,1612222525
turayf,31.6725,38.6637,9,71,0,6.17,SA,1612222664
bethel,41.3712,-73.414,-1,86,90,7.2,US,1612222668
taksimo,56.3444,114.8794,-33.26,72,53,1.58,RU,1612222669
przhevalskoye,55.5093,31.8482,-11.79,97,96,1.31,RU,1612222671
saldanha,-33.0117,17.9442,19,55,0,2.06,ZA,1612222672
lagoa,39.05,-27.9833,14.25,79,88,10.29,PT,1612222674
katsuura,35.1333,140.3,15,88,75,8.75,JP,1612222676
tiksi,71.6872,128.8694,-29.48,88,100,5.28,RU,1612222483
port hedland,-20.3167,118.5667,25,100,75,11.32,AU,1612222679
porto novo,6.4965,2.6036,29,84,40,5.14,BJ,1612222680
high level,58.5169,-117.136,-19,78,90,5.14,CA,1612222682
suicheng,33.8963,117.9331,0.15,89,0,3.68,CN,1612222684
ajdabiya,30.7554,20.2263,13.84,73,57,1.69,LY,1612222685
batetskiy,58.6461,30.3027,-4.73,98,99,3.6,RU,1612222687
samarai,-10.6167,150.6667,28.01,78,100,4.68,PG,1612222595
sarahan,31.5167,77.8,1.45,55,0,4.25,IN,1612222690
east london,-33.0153,27.9116,18.44,67,50,4.37,ZA,1612222692
tokur,53.1333,132.9,-39.82,83,93,0.24,RU,1612222693
solnechnyy,50.7214,136.6319,-26.8,85,100,0.83,RU,1612222603
clyde river,70.4692,-68.5914,-30,69,1,5.66,CA,1612222659
xinzhou,38.4092,112.7333,-9.51,59,0,0.46,CN,1612222698
bambanglipuro,-7.95,110.2833,25.52,83,93,2.33,ID,1612222700
salinopolis,-0.6136,-47.3561,26.3,85,97,5.24,BR,1612222701
fort dodge,42.4975,-94.168,-4,80,90,2.57,US,1612222620
geraldton,-28.7667,114.6,26,61,90,8.75,AU,1612222705
hays,30.0502,-98.0336,18,20,1,2.57,US,1612222706
sumbe,-11.2061,13.8437,24.56,83,85,2.68,AO,1612222708
fortuna,40.5982,-124.1573,12.22,100,75,4.63,US,1612222540
nanortalik,60.1432,-45.2371,-3.76,93,0,2.25,GL,1612222502
gloversville,43.0528,-74.3438,-2.78,68,90,6.69,US,1612222503
avera,33.194,-82.5271,6,61,90,5.66,US,1612222714
sfantu gheorghe,45.8667,25.7833,2.22,91,26,0.94,RO,1612222716
tambura,5.6,27.4667,22.49,32,13,1.58,SS,1612222717
qaanaaq,77.484,-69.3632,-23.07,75,79,1.72,GL,1612222525
birjand,32.8663,59.2211,-2,50,0,4.12,IR,1612222721
tianpeng,30.9866,103.9393,12.22,1,98,1.1,CN,1612222722
ketchikan,55.3422,-131.6461,3,93,90,2.06,US,1612222519
saint-joseph,-21.3667,55.6167,26.11,83,75,4.63,RE,1612222725
constitucion,-35.3333,-72.4167,14.71,86,19,4.24,CL,1612222727
toshkivka,48.7791,38.579,7.53,78,100,5.56,UA,1612222729
victoria,22.2855,114.1577,18.89,85,25,2.16,HK,1612222622
svetlyy yar,48.4748,44.781,2,100,90,9,RU,1612222732
torbay,47.6666,-52.7314,-1.67,80,90,8.75,CA,1612222562
lompoc,34.6391,-120.4579,16.67,67,1,4.12,US,1612222735
general cepeda,25.3833,-101.45,15,47,75,5.14,MX,1612222737
la ronge,55.1001,-105.2842,-9,86,100,3.6,CA,1612222740
ilulissat,69.2167,-51.1,-12,79,75,9.26,GL,1612222742
mahebourg,-20.4081,57.7,27,83,40,5.66,MU,1612222743
sao francisco,-15.9486,-44.8644,24.9,67,95,1.94,BR,1612222745
chara,56.9064,118.2631,-38.18,69,69,0.22,RU,1612222746
riyadh,24.6877,46.7219,15,31,0,2.32,SA,1612222427
pangnirtung,66.1451,-65.7125,-27,58,1,6.69,CA,1612222751
ilo,-17.6394,-71.3375,20.27,77,8,1.01,PE,1612222753
egvekinot,66.3167,-179.1667,-17.62,96,100,6.41,RU,1612222754
biscarrosse,44.3945,-1.1672,12,100,90,6.17,FR,1612222756
ola,59.5833,151.2833,-26.82,86,100,5.85,RU,1612222758
japura,-0.3167,102.35,23.03,96,87,1.04,ID,1612222736
saint anthony,45.0205,-93.218,-3,74,90,3.09,US,1612222761
teknaf,20.8624,92.3058,13.47,57,11,3.93,BD,1612222762
smithers,54.7804,-127.1743,-3,80,90,1.54,CA,1612222764
narsaq,60.9167,-46.05,-2,74,6,0.42,GL,1612222508
gemena,3.25,19.7667,23.18,66,67,0.96,CD,1612222767
de aar,-30.6497,24.0123,16.17,61,0,9.51,ZA,1612222769
keti bandar,24.1447,67.4497,19.73,88,0,3.59,PK,1612222771
kon tum,14.35,108,14.73,83,6,1.19,VN,1612222772
general roca,-39.0333,-67.5833,23,40,0,1.03,AR,1612222774
axim,4.8699,-2.2405,26.31,85,45,4.12,GH,1612222775
chuy,-33.6971,-53.4616,22.32,93,99,4.33,UY,1612222777
bossier city,32.516,-93.7321,14,35,1,3.6,US,1612222779
thaba-tseka,-29.522,28.6084,11.3,81,81,1.72,LS,1612222780
vila do maio,15.1333,-23.2167,22,78,0,8.23,CV,1612222782
pimentel,-6.8367,-79.9342,23,68,0,12.35,PE,1612222556
awbari,26.5921,12.7805,11.84,42,17,4.05,LY,1612222785
vila velha,-20.3297,-40.2925,26,78,75,4.63,BR,1612222694
zaria,11.1113,7.7227,20.81,23,4,2.79,NG,1612222790
hyeres,43.1167,6.1167,15,55,0,6.17,FR,1612222791
chumikan,54.7183,135.315,-34.51,75,1,8,RU,1612222531
ust-karsk,52.7011,118.8077,-35.99,77,3,1.08,RU,1612222795
san buenaventura,27.0833,-101.5333,19.44,22,50,2.87,MX,1612222796
cayenne,4.9333,-52.3333,24,100,75,1.54,GF,1612222798
bredasdorp,-34.5322,20.0403,17,67,1,3.6,ZA,1612222563
antalaha,-14.9003,50.2788,24.38,88,56,3.2,MG,1612222801
gamba,-2.65,10,24.55,91,100,2.95,GA,1612222803
almaznyy,48.0448,40.045,9,66,0,5,RU,1612222807
nizhniy kuranakh,58.8353,125.4869,-34.98,81,100,2.95,RU,1612222809
glasgow,55.8652,-4.2576,2.22,87,100,7.2,GB,1612222776
gidam,18.9833,81.4,11.41,39,0,1.05,IN,1612222812
burnie,-41.0667,145.9167,16.11,51,0,7.6,AU,1612222814
huntingdon,52.3305,-0.1865,1.11,91,55,0.89,GB,1612222815
ust-tsilma,65.441,52.1498,-9.15,95,100,5.1,RU,1612222817
portland,45.5234,-122.6762,10,93,90,3.6,US,1612222818
bodh gaya,24.7,84.9833,8.61,54,0,2.3,IN,1612222820
balkanabat,39.5108,54.3671,8.08,70,0,2.95,TM,1612222822
uinskoye,56.8817,56.5813,-10.6,96,100,4.42,RU,1612222824
sembe,1.6481,14.5806,22.29,89,100,1.42,CG,1612222825
zyryanka,65.75,150.85,-29.78,86,100,8.99,RU,1612222827
ancud,-41.8697,-73.8203,20,49,0,5.66,CL,1612222828
auki,-8.7676,160.7034,27.83,84,100,7.09,SB,1612222832
mehamn,71.0357,27.8492,-3.7,95,100,2.6,NO,1612222833
guilin,25.2819,110.2864,13,82,90,1,CN,1612222835
ornskoldsvik,63.2909,18.7153,-13,92,100,2.06,SE,1612222836
tigil,57.8,158.6667,-21.27,90,100,2.12,RU,1612222838
misratah,32.3754,15.0925,15.88,57,57,3.34,LY,1612222841
ixtapa,20.7,-105.2,24,78,1,3.6,MX,1612222843
longyearbyen,78.2186,15.6401,-9,73,75,4.63,SJ,1612222845
cherskiy,68.75,161.3,-14.42,93,100,3.91,RU,1612222846
mexicali,32.6519,-115.4683,21.11,28,90,2.57,MX,1612222721
banda aceh,5.5577,95.3222,25.32,79,62,5.35,ID,1612222850
staunton,38.1496,-79.0717,0,86,90,3.6,US,1612222788
zhicheng,30.2956,111.5047,5,70,0,0.84,CN,1612222853
sechura,-5.5569,-80.8222,25.78,61,69,7.31,PE,1612222855
wuan,31.6836,112.0044,5.89,58,0,3.75,CN,1612222856
tashla,51.7716,52.7427,1.21,98,100,5.81,RU,1612222859
parker,32.7668,-97.8003,16,27,1,2.57,US,1612222861
yeppoon,-23.1333,150.7333,27,54,28,2.57,AU,1612222863
sioux lookout,50.1001,-91.917,-7,86,90,2.57,CA,1612222645
baghdad,33.3406,44.4009,8,66,0,2.06,IQ,1612222611
pochutla,15.7432,-96.4661,30,62,1,2.61,MX,1612222868
palana,59.1167,159.9667,-22.47,93,100,3.54,RU,1612222870
salalah,17.0151,54.0924,19,77,0,1.54,OM,1612222871
sao felix do xingu,-6.6447,-51.995,22.87,93,14,1.12,BR,1612222873
araouane,18.9048,-3.5265,20.17,21,23,4,ML,1612222875
luwuk,-0.9516,122.7875,26.91,71,100,1.24,ID,1612222876
jieshi,22.8134,115.8257,18.89,79,10,2.19,CN,1612222878
flin flon,54.7682,-101.865,-8,93,90,5.14,CA,1612222881
mount isa,-20.7333,139.5,33,46,81,5.66,AU,1612222662
lakatoro,-16.0999,167.4164,28.56,76,100,8.12,VU,1612222886
acapulco,16.8634,-99.8901,29,70,1,4.12,MX,1612222888
inhambane,-23.865,35.3833,26.12,86,46,1.22,MZ,1612222718
farmington,36.7281,-108.2187,11,30,90,1.98,US,1612222786
chandler,33.3062,-111.8412,23.33,24,90,4.12,US,1612222635
puerto quijarro,-17.7833,-57.7667,27.4,64,18,0.56,BO,1612222894
sambava,-14.2667,50.1667,25.1,88,35,4.3,MG,1612222896
hailar,49.2,119.7,-32.85,82,0,3.54,CN,1612222897
luderitz,-26.6481,15.1594,17.97,74,0,6.87,NA,1612222899
kholodnyy,62.7167,147.95,-32.03,82,100,2.1,RU,1612222900
vao,-22.6667,167.4833,24.18,81,100,12.63,NC,1612222902
dingle,10.9995,122.6711,25.44,86,79,4.45,PH,1612222904
hervey bay,-25.2986,152.8535,28.33,67,12,1.79,AU,1612222905
upernavik,72.7868,-56.1549,-17.63,92,100,2.23,GL,1612222907
fukue,32.6881,128.8419,8,61,20,6.17,JP,1612222790
constantine,36.365,6.6147,10,66,75,3.6,DZ,1612222912
guerrero negro,27.9769,-114.0611,20.24,38,95,6.46,MX,1612222658
vigrestad,58.5667,5.7,-2.78,92,20,2.4,NO,1612222915
ambon,-3.6954,128.1814,26,89,40,3.09,ID,1612222917
fredericton,45.9454,-66.6656,-3,80,90,3.09,CA,1612222663
andenes,69.3143,16.1194,0,74,40,5.14,NO,1612222920
laguna de duero,41.5815,-4.7233,10.56,93,90,8.75,ES,1612222921
pilar,-9.5972,-35.9567,24,88,20,2.06,BR,1612222923
gilgit,35.9221,74.3087,-0.96,70,83,1.47,PK,1612222925
saint-pierre,-21.3393,55.4781,26.11,83,75,1.03,RE,1612222926
mosquera,4.7059,-74.2302,17,55,75,3.6,CO,1612222928
bonthe,7.5264,-12.505,25.48,86,0,2.75,SL,1612222930
eldorado,-23.7869,-54.2836,23.15,93,96,3.76,BR,1612222931
dzilam gonzalez,21.2833,-88.9333,19.19,70,6,3.99,MX,1612222933
komsomolskiy,40.4272,71.7189,2,69,98,2.06,UZ,1612222935
haines junction,60.7522,-137.5108,-19,60,100,4.12,CA,1612222938
wukari,7.85,9.7833,27.2,21,0,1.5,NG,1612222940
comodoro rivadavia,-45.8667,-67.5,26,34,0,3.09,AR,1612222941
krasnoselkup,65.7,82.4667,-24.75,88,100,6.81,RU,1612222943
staicele,57.8364,24.75,-5,95,61,0.45,LV,1612222944
chicama,-7.8447,-79.1469,21,83,0,4.12,PE,1612222946
sayyan,15.1718,44.3244,6.05,60,0,1.87,YE,1612222948
svetlyy,54.675,20.1347,-6,79,100,4,RU,1612222949
touros,-5.1989,-35.4608,26,78,20,2.57,BR,1612222951
takoradi,4.8845,-1.7554,26.23,87,33,3.87,GH,1612222952
ilhabela,-23.7781,-45.3581,25.58,79,100,2.96,BR,1612222956
luorong,24.4058,109.6086,15.47,75,76,3.2,CN,1612222957
niagara falls,43.1001,-79.0663,-2.22,80,90,5.14,CA,1612222814
merrill,45.1805,-89.6835,-1,74,90,3.09,US,1612222960
hermiston,45.8404,-119.2895,18.33,34,75,3.6,US,1612222962
adre,13.4667,22.2,19.51,26,0,2.44,TD,1612222964
richards bay,-28.783,32.0377,20.9,75,100,5.44,ZA,1612222965
meulaboh,4.1363,96.1285,24.01,90,93,2.75,ID,1612222967
nkhata bay,-11.6066,34.2907,23.45,77,99,2.28,MW,1612222968
biak,-0.9131,122.8766,25.81,77,100,1.54,ID,1612222970
gorontalo,0.5412,123.0595,25.8,82,100,1.37,ID,1612222972
lalibela,12.0333,39.0333,9.64,47,0,1.57,ET,1612222973
sinnamary,5.3833,-52.95,24.86,84,100,6.41,GF,1612222737
ca mau,9.1769,105.15,22.91,86,87,1.88,VN,1612222976
glenwood springs,39.5505,-107.3248,4.44,43,90,4.63,US,1612222978
san ramon,37.7799,-121.978,18.33,39,1,4.12,US,1612222746
tongchuan,35.0806,109.0897,-2.27,68,0,1.18,CN,1612222981
castro,-24.7911,-50.0119,19.17,96,92,1.81,BR,1612222983
payson,40.0444,-111.7321,8.89,60,75,1.54,US,1612222985
mporokoso,-9.3727,30.125,16.41,95,100,1.11,ZM,1612222986
palembang,-2.9167,104.7458,24,94,40,2.57,ID,1612222988
orcopampa,-15.2661,-72.3417,7.38,68,91,1.25,PE,1612222990
ivankiv,50.9386,29.8943,-9,92,4,2,UA,1612222991
eureka,40.8021,-124.1637,10.56,94,100,3.58,US,1612222993
hanyang,32.1371,105.5126,2.78,89,38,0.89,CN,1612222998
pingzhuang,42.0372,119.2889,-22.16,78,47,2.12,CN,1612222999
saint-georges,12.0564,-61.7485,27,74,20,5.66,GD,1612223001
kalmunai,7.4167,81.8167,24.75,85,51,2.28,LK,1612223004
lloydminster,53.2835,-110.0016,-11,79,75,3.09,CA,1612223006
haukipudas,65.1765,25.3523,-23,77,0,1.03,FI,1612223007
gazanjyk,39.2446,55.5154,7.1,80,0,2.81,TM,1612223009
erzin,36.9559,36.2,10,76,13,7.15,TR,1612223011
zhaoyuan,37.3592,120.3964,-3.33,80,21,2.67,CN,1612223012
mahon,39.8885,4.2658,13,76,0,3.09,ES,1612223015
galesong,-5.3166,119.3661,25,94,40,1.54,ID,1612223017
nouadhibou,20.931,-17.0347,18,82,0,6.17,MR,1612223019
koslan,63.4564,48.8989,-7.96,96,100,5.05,RU,1612223021
pardilho,40.7993,-8.626,13.89,94,99,4.43,PT,1612223022
mayo,38.8876,-76.5119,0.56,98,90,7.67,US,1612223024
svetlogorsk,52.6333,29.7333,-9.26,94,67,2.12,BY,1612223025
palafrugell,41.9174,3.1631,10.56,93,0,2.06,ES,1612223027
lasa,46.6166,10.7002,1.11,100,75,3.09,IT,1612223030
batemans bay,-35.7167,150.1833,20,60,77,2.68,AU,1612223032
kibala,9.1104,18.3463,22,60,0,1.5,TD,1612223034
lorengau,-2.0226,147.2712,28.83,73,83,5.17,PG,1612223035
coahuayana,18.7333,-103.6833,27,57,1,2.06,MX,1612223037
cartagena,10.3997,-75.5144,29,70,40,2.06,CO,1612222761
muli,2.9167,73.5667,28.13,74,76,6.23,MV,1612223040
subtanjalla,-14.0189,-75.7581,23.33,64,40,7.2,PE,1612223042
sabha,27.0377,14.4283,11.51,44,0,3.43,LY,1612223043
silver city,32.7701,-108.2803,12.22,30,1,3.09,US,1612223045
balykshi,47.0667,51.8667,2,100,90,6,KZ,1612223047
haldia,22.0605,88.1097,11.53,42,0,2.85,IN,1612222922
machachi,-0.5,-78.5667,16,76,40,7.72,EC,1612223050
buraydah,26.326,43.975,14,47,0,4.12,SA,1612223047
mabay,6.0577,124.4666,26.86,72,100,1.23,PH,1612223053
aripuana,-9.1667,-60.6333,23.61,96,98,0.43,BR,1612223055
chancay,-11.5714,-77.2672,22,68,0,4.12,PE,1612223056
bima,-8.4667,118.7167,27.22,81,21,1.08,ID,1612223058
berlevag,70.8578,29.0864,-4,74,75,5.66,NO,1612223060
nome,64.5011,-165.4064,-14,56,90,11.32,US,1612222849
shambu,9.5667,37.1,13.03,39,47,0.59,ET,1612223063
roald,62.5833,6.1333,-1,93,90,3.09,NO,1612223064
santa cruz,-17.8,-63.1667,26,83,40,6.17,BO,1612223066
laibin,23.7,109.2667,16.83,68,63,2.02,CN,1612223068
beringovskiy,63.05,179.3167,-0.11,99,100,5.96,RU,1612223069
surt,31.2089,16.5887,15.01,51,63,5.88,LY,1612222817
mango,27.9797,-82.3065,12,62,90,6.17,US,1612223072
marawi,7.9986,124.2928,23.89,93,100,1.34,PH,1612223074
sorong,-0.8833,131.25,27.78,77,89,2.8,ID,1612223076
atambua,-9.1061,124.8925,25.94,77,62,0.57,ID,1612223077
taltal,-25.4,-70.4833,19.21,75,18,2.81,CL,1612223079
susanville,40.4163,-120.653,10,40,1,2.57,US,1612223081
broken hill,-31.95,141.4333,18,48,0,8.23,AU,1612223082
thunder bay,48.4001,-89.3168,-1.67,74,90,3.6,CA,1612223003
teguldet,57.3064,88.1667,-25.56,88,42,0.96,RU,1612223087
nabire,-3.3667,135.4833,27.18,76,88,0.59,ID,1612223089
yulara,-25.2406,130.9889,26,34,64,8.23,AU,1612223090
labuhan,-6.8844,112.2051,25.93,85,99,3.78,ID,1612223092
huadian,42.9633,126.7478,-23.66,85,68,5.32,CN,1612223093
chenghai,23.4632,116.768,13,94,2,1.23,CN,1612223095
sistranda,63.7256,8.834,-5,80,20,6.69,NO,1612223097
diego de almagro,-26.3667,-70.05,17.09,56,5,1.9,CL,1612222888
camana,-16.6228,-72.7111,21.37,74,16,2.1,PE,1612223100
marinette,45.1,-87.6307,0,51,1,1.54,US,1612222879
aqtobe,50.2797,57.2072,-4,93,90,3,KZ,1612223104
ostrovnoy,68.0531,39.5131,-7.98,96,100,5.14,RU,1612223107
rosarito,32.3333,-117.0333,20,52,90,3.6,MX,1612223068
porirua,-41.1333,174.85,20.56,63,17,4.12,NZ,1612222883
longhua,23.6137,114.1919,15.9,67,21,1.32,CN,1612223112
yar-sale,66.8333,70.8333,-10.96,96,100,6.48,RU,1612223114
samfya,-11.3649,29.5565,18.56,93,100,1.76,ZM,1612223115
tahe,52.3333,124.7333,-31.71,82,100,3.53,CN,1612223117
tomatlan,19.9333,-105.25,26.26,71,47,2.87,MX,1612223119
souris,49.6172,-100.2612,-7,93,90,6.17,CA,1612223121
kanniyakumari,8.0833,77.5667,24.44,73,62,10.9,IN,1612223122
ahuimanu,21.4447,-157.8378,26,73,90,4.63,US,1612223124
kupang,-10.1667,123.5833,27,89,75,4.63,ID,1612223126
gubkinskiy,64.434,76.5026,-18.2,92,100,9.19,RU,1612223128
trinidad,-14.8333,-64.9,28,83,75,2.57,BO,1612223122
dusti,37.3481,68.664,7,87,75,1,TJ,1612223131
camacha,33.0833,-16.3333,17,72,75,3.09,PT,1612223133
sarangani,5.4033,125.4636,27.46,70,100,1.97,PH,1612223135
lenoir,35.2335,-77.6497,3.33,93,90,3.09,US,1612223138
san jose,37.3394,-121.895,17.22,42,20,7.2,US,1612222891
rorvik,64.8621,11.2373,-3.2,95,98,3.38,NO,1612223141
partizansk,43.1258,133.1339,-19.78,80,44,4.83,RU,1612223144
rancho palos verdes,33.7445,-118.387,18.89,75,100,1.79,US,1612223146
sibolga,1.7427,98.7792,23.75,80,74,1.83,ID,1612223147
kaohsiung,22.6163,120.3133,19.44,63,20,1.54,TW,1612223150
udachnyy,66.4167,112.4,-40.23,79,100,4.12,RU,1612223152
my tho,10.35,106.35,23,88,40,1.54,VN,1612223155
petropavl,54.8753,69.1628,-15,85,0,6,KZ,1612223157
beloha,-25.1667,45.05,24.86,86,38,1.54,MG,1612223159
gurun,5.8172,100.4738,26.11,88,20,2.06,MY,1612223161
lethem,3.3803,-59.7968,27.02,60,60,4.11,GY,1612223163
taperoa,-7.2075,-36.8267,23.23,70,69,7.41,BR,1612223165
ambilobe,-13.2,49.05,23.36,93,37,0.72,MG,1612223166
pak phanang,8.3511,100.202,24,94,20,2.36,TH,1612223168
dingzhou,38.5131,114.9956,-10,57,0,1,CN,1612223170
tuy hoa,13.0833,109.3,20.16,89,47,2.47,VN,1612223172
koping,59.514,15.9926,-6.67,86,90,1.54,SE,1612223173
peniche,39.3558,-9.3811,13.89,96,98,3.13,PT,1612223175
garden city,42.3256,-83.331,0,55,90,6.69,US,1612223176
bahia blanca,-38.7196,-62.2724,17.43,54,100,5.03,AR,1612223180
oistins,13.0667,-59.5333,26,61,40,8.23,BB,1612223183
dubrovnik,42.6481,18.0922,10,93,75,4.12,HR,1612222622
mount gambier,-37.8333,140.7667,16,59,66,7.2,AU,1612223186
tirumullaivasal,11.2333,79.8333,24.18,79,22,5.37,IN,1612223188
kununurra,-15.7667,128.7333,28,94,99,2.06,AU,1612223140
baikunthpur,23.25,82.55,8.57,48,1,0.56,IN,1612223191
great yarmouth,52.6083,1.7305,0.56,93,21,1.54,GB,1612223193
matara,5.9485,80.5353,23.36,87,54,2.54,LK,1612223195
port hardy,50.6996,-127.4199,6,93,90,2.06,CA,1612223102
zharkent,44.1628,80,-2.18,95,100,1.61,KZ,1612223198
zalantun,48,122.7167,-28.57,77,4,3.64,CN,1612223199
alice springs,-23.7,133.8833,28.33,36,0,7.2,AU,1612223034
offa,8.15,4.7167,21.47,94,0,2.54,NG,1612223204
vanavara,60.34,102.2797,-38.69,82,13,1.29,RU,1612223206
satipo,-11.2522,-74.6386,23.24,81,93,0.7,PE,1612223207
goba,7.0167,39.9833,8.59,46,42,1.4,ET,1612223209
villarrubia de los ojos,39.2209,-3.608,7.78,93,34,1.79,ES,1612223211
alyangula,-13.8483,136.4192,30,74,40,4.12,AU,1612223212
harper,4.375,-7.7169,25.84,89,52,4.71,LR,1612223214
santa maria,-29.6842,-53.8069,23.51,89,39,1.82,BR,1612223217
abu samrah,35.3029,37.1841,8.58,75,0,3.85,SY,1612223218
ormara,25.2088,64.6357,20.15,82,0,3.84,PK,1612223220
vangaindrano,-23.35,47.6,24.96,92,16,1.98,MG,1612223221
kalevala,65.2,31.1667,-15.63,94,84,1.26,RU,1612223223
puerto ayacucho,5.6639,-67.6236,27.71,64,100,1.34,VE,1612223227
labuan,5.2767,115.2417,26,89,20,1.54,MY,1612223228
sapatgram,26.3334,90.109,13.14,63,0,1.24,IN,1612223230
mazagao,-0.115,-51.2894,25,100,90,2.06,BR,1612223231
shenjiamen,29.9576,122.298,7.84,83,15,6.55,CN,1612223233
pascagoula,30.3658,-88.5561,9,49,1,6.17,US,1612223235
xining,36.6167,101.7667,-11.35,68,0,1.38,CN,1612223236
urumqi,43.801,87.6005,-15,85,28,0.59,CN,1612223238
pafos,34.7667,32.4167,12,71,20,2.57,CY,1612223045
changji,44.0167,87.3167,-15,85,52,1.05,CN,1612223241
quatre cocos,-20.2078,57.7625,27,83,40,5.66,MU,1612223244
at-bashi,41.1702,75.8106,-11.69,77,5,0.32,KG,1612223246
imbituba,-28.24,-48.6703,25,94,75,1.54,BR,1612223248
